{"type":"FeatureCollection","features":[{"type":"Feature","properties":{"City":"Madison (WI)","University":"Wisconsin","Clge_Enr_2009":47623,"Clge_Enr_2010":31956,"Clge_Enr_2011":34925,"Clge_Enr_2012":36784,"Clge_Enr_2013":37983,"Clge_Enr_2014":35097,"Clge_Enr_2015":36670},"geometry":{"type":"Point","coordinates":[-89.4012,43.0731]}},{"type":"Feature","properties":{"City":"Syracuse (NY)","University":"Syracuse","Clge_Enr_2009":18220,"Clge_Enr_2010":21271,"Clge_Enr_2011":20572,"Clge_Enr_2012":20674,"Clge_Enr_2013":19418,"Clge_Enr_2014":17710,"Clge_Enr_2015":18867},"geometry":{"type":"Point","coordinates":[-76.147,43.0481]}},{"type":"Feature","properties":{"City":"Los Angeles (CA)","University":"USC","Clge_Enr_2009":249445,"Clge_Enr_2010":273833,"Clge_Enr_2011":285721,"Clge_Enr_2012":287590,"Clge_Enr_2013":285663,"Clge_Enr_2014":288381,"Clge_Enr_2015":294867},"geometry":{"type":"Point","coordinates":[-118.2437,34.0522]}},{"type":"Feature","properties":{"City":"Durham (NC)","University":"Duke","Clge_Enr_2009":20984,"Clge_Enr_2010":19077,"Clge_Enr_2011":20110,"Clge_Enr_2012":19947,"Clge_Enr_2013":18063,"Clge_Enr_2014":20065,"Clge_Enr_2015":17683},"geometry":{"type":"Point","coordinates":[-78.8986,35.994]}},{"type":"Feature","properties":{"City":"Ann Arbor (MI)","University":"Michigan","Clge_Enr_2009":34106,"Clge_Enr_2010":31248,"Clge_Enr_2011":29380,"Clge_Enr_2012":29206,"Clge_Enr_2013":27236,"Clge_Enr_2014":26455,"Clge_Enr_2015":27215},"geometry":{"type":"Point","coordinates":[-83.743,42.2808]}},{"type":"Feature","properties":{"City":"Eugene (OR)","University":"Oregon","Clge_Enr_2009":24071,"Clge_Enr_2010":23909,"Clge_Enr_2011":29427,"Clge_Enr_2012":31972,"Clge_Enr_2013":24370,"Clge_Enr_2014":24977,"Clge_Enr_2015":22818},"geometry":{"type":"Point","coordinates":[-123.0868,44.0521]}},{"type":"Feature","properties":{"City":"Tallahassee (FL)","University":"Florida State","Clge_Enr_2009":47593,"Clge_Enr_2010":49096,"Clge_Enr_2011":50222,"Clge_Enr_2012":50512,"Clge_Enr_2013":42833,"Clge_Enr_2014":46785,"Clge_Enr_2015":47096},"geometry":{"type":"Point","coordinates":[-84.2807,30.4383]}},{"type":"Feature","properties":{"City":"Columbus (OH)","University":"Ohio State","Clge_Enr_2009":66520,"Clge_Enr_2010":70927,"Clge_Enr_2011":76765,"Clge_Enr_2012":68952,"Clge_Enr_2013":63392,"Clge_Enr_2014":69485,"Clge_Enr_2015":74814},"geometry":{"type":"Point","coordinates":[-82.9988,39.9612]}},{"type":"Feature","properties":{"City":"Baton Rouge (LA)","University":"LSU","Clge_Enr_2009":31940,"Clge_Enr_2010":27147,"Clge_Enr_2011":26374,"Clge_Enr_2012":28915,"Clge_Enr_2013":26067,"Clge_Enr_2014":28173,"Clge_Enr_2015":29441},"geometry":{"type":"Point","coordinates":[-91.1403,30.4583]}},{"type":"Feature","properties":{"City":"Spokane (WA)","University":"Gonzaga","Clge_Enr_2009":13069,"Clge_Enr_2010":16018,"Clge_Enr_2011":14683,"Clge_Enr_2012":14228,"Clge_Enr_2013":16422,"Clge_Enr_2014":14787,"Clge_Enr_2015":15694},"geometry":{"type":"Point","coordinates":[-117.426,47.6588]}},{"type":"Feature","properties":{"City":"Waco (TX)","University":"Baylor","Clge_Enr_2009":20818,"Clge_Enr_2010":17352,"Clge_Enr_2011":17803,"Clge_Enr_2012":19291,"Clge_Enr_2013":19589,"Clge_Enr_2014":16416,"Clge_Enr_2015":16341},"geometry":{"type":"Point","coordinates":[-97.1467,31.5493]}},{"type":"Feature","properties":{"City":"Evanston (IL)","University":"Northwestern","Clge_Enr_2009":9708,"Clge_Enr_2010":11907,"Clge_Enr_2011":8458,"Clge_Enr_2012":11267,"Clge_Enr_2013":10387,"Clge_Enr_2014":9502,"Clge_Enr_2015":9606},"geometry":{"type":"Point","coordinates":[-87.6877,42.0451]}},{"type":"Feature","properties":{"City":"Iowa City (IA)","University":"Iowa","Clge_Enr_2009":21675,"Clge_Enr_2010":19757,"Clge_Enr_2011":21749,"Clge_Enr_2012":17583,"Clge_Enr_2013":19540,"Clge_Enr_2014":20243,"Clge_Enr_2015":20679},"geometry":{"type":"Point","coordinates":[-91.5302,41.6611]}},{"type":"Feature","properties":{"City":"Lincoln (NE)","University":"Nebraska","Clge_Enr_2009":33939,"Clge_Enr_2010":30428,"Clge_Enr_2011":34391,"Clge_Enr_2012":29893,"Clge_Enr_2013":30063,"Clge_Enr_2014":30173,"Clge_Enr_2015":30329},"geometry":{"type":"Point","coordinates":[-96.6852,40.8258]}},{"type":"Feature","properties":{"City":"Lawrence (KS)","University":"Kansas","Clge_Enr_2009":27087,"Clge_Enr_2010":23947,"Clge_Enr_2011":22958,"Clge_Enr_2012":21082,"Clge_Enr_2013":18523,"Clge_Enr_2014":18364,"Clge_Enr_2015":19967},"geometry":{"type":"Point","coordinates":[-95.2353,38.9717]}}]}